[{"id": "VJ4fKEeTljlRgCTfYdcs_Q", "alias": "north-italia-charlotte-charlotte-3", "name": "North Italia- Charlotte", "image_url": "https://s3-media1.fl.yelpcdn.com/bphoto/gXXnO60228IVT031-aMNdQ/o.jpg", "is_closed": false, "url": "https://www.yelp.com/biz/north-italia-charlotte-charlotte-3?adjust_creative=3j_hgEMT5cXMV0-4GMvDgQ&utm_campaign=yelp_api_v3&utm_medium=api_v3_business_search&utm_source=3j_hgEMT5cXMV0-4GMvDgQ", "review_count": 534, "categories": [{"alias": "italian", "title": "Italian"}, {"alias": "pizza", "title": "Pizza"}, {"alias": "cocktailbars", "title": "Cocktail Bars"}], "rating": 4.5, "coordinates": {"latitude": 35.217367419856366, "longitude": -80.85519228575843}, "transactions": ["delivery"], "price": "$$", "location": {"address1": "1414 S Tryon St", "address2": "Ste 140", "address3": null, "city": "Charlotte", "zip_code": "28203", "country": "US", "state": "NC", "display_address": ["1414 S Tryon St", "Ste 140", "Charlotte, NC 28203"]}, "phone": "+19802798900", "display_phone": "(980) 279-8900", "distance": 2765.647287167739}, {"id": "xtI0IrtdusfRNhr91Gvw8Q", "alias": "cicchetti-charlotte", "name": "Cicchetti", "image_url": "https://s3-media4.fl.yelpcdn.com/bphoto/sFn1qYTnOFzYQAsfcYMTXw/o.jpg", "is_closed": false, "url": "https://www.yelp.com/biz/cicchetti-charlotte?adjust_creative=3j_hgEMT5cXMV0-4GMvDgQ&utm_campaign=yelp_api_v3&utm_medium=api_v3_business_search&utm_source=3j_hgEMT5cXMV0-4GMvDgQ", "review_count": 56, "categories": [{"alias": "wine_bars", "title": "Wine Bars"}, {"alias": "italian", "title": "Italian"}, {"alias": "tapasmallplates", "title": "Tapas/Small Plates"}], "rating": 4.5, "coordinates": {"latitude": 35.2264258325475, "longitude": -80.8419455846622}, "transactions": ["delivery"], "price": "$$", "location": {"address1": "100 N Tryon St", "address2": "", "address3": null, "city": "Charlotte", "zip_code": "28202", "country": "US", "state": "NC", "display_address": ["100 N Tryon St", "Charlotte, NC 28202"]}, "phone": "+19802990039", "display_phone": "(980) 299-0039", "distance": 2680.884708114235}, {"id": "A_fpNRoUZRU41n8_9LJJMA", "alias": "little-mamas-charlotte-2", "name": "Little Mama's", "image_url": "https://s3-media2.fl.yelpcdn.com/bphoto/jpMRrvogHtO1jwwCPs6-KQ/o.jpg", "is_closed": false, "url": "https://www.yelp.com/biz/little-mamas-charlotte-2?adjust_creative=3j_hgEMT5cXMV0-4GMvDgQ&utm_campaign=yelp_api_v3&utm_medium=api_v3_business_search&utm_source=3j_hgEMT5cXMV0-4GMvDgQ", "review_count": 377, "categories": [{"alias": "italian", "title": "Italian"}, {"alias": "breakfast_brunch", "title": "Breakfast & Brunch"}], "rating": 4.5, "coordinates": {"latitude": 35.150636, "longitude": -80.828631}, "transactions": ["pickup", "delivery"], "price": "$$", "location": {"address1": "4521 Sharon Rd", "address2": "", "address3": null, "city": "Charlotte", "zip_code": "28211", "country": "US", "state": "NC", "display_address": ["4521 Sharon Rd", "Charlotte, NC 28211"]}, "phone": "+19802090323", "display_phone": "(980) 209-0323", "distance": 6021.37779713198}, {"id": "USleI8g1UVN9-9jm-b4uIg", "alias": "the-fig-tree-restaurant-charlotte", "name": "The Fig Tree Restaurant", "image_url": "https://s3-media3.fl.yelpcdn.com/bphoto/Ie_510Zsbll8Px4kL6JcBg/o.jpg", "is_closed": false, "url": "https://www.yelp.com/biz/the-fig-tree-restaurant-charlotte?adjust_creative=3j_hgEMT5cXMV0-4GMvDgQ&utm_campaign=yelp_api_v3&utm_medium=api_v3_business_search&utm_source=3j_hgEMT5cXMV0-4GMvDgQ", "review_count": 579, "categories": [{"alias": "newamerican", "title": "American (New)"}, {"alias": "french", "title": "French"}, {"alias": "italian", "title": "Italian"}], "rating": 4.5, "coordinates": {"latitude": 35.21657923041921, "longitude": -80.82263478628032}, "transactions": ["delivery"], "price": "$$$", "location": {"address1": "1601 E 7th St", "address2": null, "address3": "", "city": "Charlotte", "zip_code": "28204", "country": "US", "state": "NC", "display_address": ["1601 E 7th St", "Charlotte, NC 28204"]}, "phone": "+17043323322", "display_phone": "(704) 332-3322", "distance": 1430.586444701952}, {"id": "sUYTbo8MmmLytFTKgME6PQ", "alias": "ever-andalo-charlotte", "name": "Ever Andalo", "image_url": "https://s3-media1.fl.yelpcdn.com/bphoto/JLr07WsIi-Qbbnkxcaiogg/o.jpg", "is_closed": false, "url": "https://www.yelp.com/biz/ever-andalo-charlotte?adjust_creative=3j_hgEMT5cXMV0-4GMvDgQ&utm_campaign=yelp_api_v3&utm_medium=api_v3_business_search&utm_source=3j_hgEMT5cXMV0-4GMvDgQ", "review_count": 104, "categories": [{"alias": "italian", "title": "Italian"}], "rating": 4.5, "coordinates": {"latitude": 35.2467213623962, "longitude": -80.80591969999999}, "transactions": [], "price": "$$$", "location": {"address1": "3116 N Davidson St", "address2": "", "address3": null, "city": "Charlotte", "zip_code": "28205", "country": "US", "state": "NC", "display_address": ["3116 N Davidson St", "Charlotte, NC 28205"]}, "phone": "+17049106543", "display_phone": "(704) 910-6543", "distance": 5109.946437891255}, {"id": "wN0oHGDoV-6n4DBZCiSd4w", "alias": "indaco-charlotte", "name": "Indaco", "image_url": "https://s3-media4.fl.yelpcdn.com/bphoto/64zUIyCeKqnepc7r6VFE1Q/o.jpg", "is_closed": false, "url": "https://www.yelp.com/biz/indaco-charlotte?adjust_creative=3j_hgEMT5cXMV0-4GMvDgQ&utm_campaign=yelp_api_v3&utm_medium=api_v3_business_search&utm_source=3j_hgEMT5cXMV0-4GMvDgQ", "review_count": 242, "categories": [{"alias": "italian", "title": "Italian"}, {"alias": "wine_bars", "title": "Wine Bars"}], "rating": 4.0, "coordinates": {"latitude": 35.2087362852003, "longitude": -80.86124946059641}, "transactions": ["pickup", "delivery"], "price": "$$", "location": {"address1": "2046 South Blvd", "address2": null, "address3": "", "city": "Charlotte", "zip_code": "28203", "country": "US", "state": "NC", "display_address": ["2046 South Blvd", "Charlotte, NC 28203"]}, "phone": "+17047419004", "display_phone": "(704) 741-9004", "distance": 2968.8895284584046}, {"id": "v72XMTh-dI3L6kHZSRpzpw", "alias": "capishe-real-italian-kitchen-charlotte", "name": "Capishe Real Italian Kitchen", "image_url": "https://s3-media2.fl.yelpcdn.com/bphoto/JUEbzZqVu4JzgzoanNjMGw/o.jpg", "is_closed": false, "url": "https://www.yelp.com/biz/capishe-real-italian-kitchen-charlotte?adjust_creative=3j_hgEMT5cXMV0-4GMvDgQ&utm_campaign=yelp_api_v3&utm_medium=api_v3_business_search&utm_source=3j_hgEMT5cXMV0-4GMvDgQ", "review_count": 554, "categories": [{"alias": "pizza", "title": "Pizza"}, {"alias": "italian", "title": "Italian"}, {"alias": "wine_bars", "title": "Wine Bars"}], "rating": 4.5, "coordinates": {"latitude": 35.217279, "longitude": -80.848077}, "transactions": ["pickup", "delivery"], "price": "$$", "location": {"address1": "500 E Morehead St", "address2": "Ste 100", "address3": "", "city": "Charlotte", "zip_code": "28202", "country": "US", "state": "NC", "display_address": ["500 E Morehead St", "Ste 100", "Charlotte, NC 28202"]}, "phone": "+19808199494", "display_phone": "(980) 819-9494", "distance": 2225.940336571628}, {"id": "Xu_LUIqNwJBZj0xnXTY-ZQ", "alias": "osteria-luca-charlotte", "name": "Osteria LuCa", "image_url": "https://s3-media2.fl.yelpcdn.com/bphoto/wjgIAc4xJPy2QQz_ITIA_w/o.jpg", "is_closed": false, "url": "https://www.yelp.com/biz/osteria-luca-charlotte?adjust_creative=3j_hgEMT5cXMV0-4GMvDgQ&utm_campaign=yelp_api_v3&utm_medium=api_v3_business_search&utm_source=3j_hgEMT5cXMV0-4GMvDgQ", "review_count": 146, "categories": [{"alias": "pizza", "title": "Pizza"}, {"alias": "italian", "title": "Italian"}, {"alias": "sandwiches", "title": "Sandwiches"}], "rating": 4.5, "coordinates": {"latitude": 35.175408, "longitude": -80.849477}, "transactions": ["delivery"], "price": "$$", "location": {"address1": "4127 Park Rd", "address2": "", "address3": null, "city": "Charlotte", "zip_code": "28209", "country": "US", "state": "NC", "display_address": ["4127 Park Rd", "Charlotte, NC 28209"]}, "phone": "+17049100142", "display_phone": "(704) 910-0142", "distance": 3762.6828490582348}, {"id": "SZ88QygottFtKHrk8XRvSQ", "alias": "deans-italian-steakhouse-charlotte-2", "name": "Dean's Italian Steakhouse", "image_url": "https://s3-media4.fl.yelpcdn.com/bphoto/BzUJZxwgrArzogUKnJmh3A/o.jpg", "is_closed": false, "url": "https://www.yelp.com/biz/deans-italian-steakhouse-charlotte-2?adjust_creative=3j_hgEMT5cXMV0-4GMvDgQ&utm_campaign=yelp_api_v3&utm_medium=api_v3_business_search&utm_source=3j_hgEMT5cXMV0-4GMvDgQ", "review_count": 128, "categories": [{"alias": "steak", "title": "Steakhouses"}, {"alias": "italian", "title": "Italian"}, {"alias": "wine_bars", "title": "Wine Bars"}], "rating": 4.0, "coordinates": {"latitude": 35.22264257052351, "longitude": -80.84797936733507}, "transactions": [], "location": {"address1": "128 E Brooklyn Vlg Ave", "address2": null, "address3": null, "city": "Charlotte", "zip_code": "28202", "country": "US", "state": "NC", "display_address": ["128 E Brooklyn Vlg Ave", "Charlotte, NC 28202"]}, "phone": "+17044996626", "display_phone": "(704) 499-6626", "distance": 2633.7006364362987}, {"id": "jcasci3gjbsSuTEVzvDQKg", "alias": "mama-ricottas-charlotte-16", "name": "Mama Ricotta's", "image_url": "https://s3-media2.fl.yelpcdn.com/bphoto/qmQwtiFSe_RoB1Gz7XlVdA/o.jpg", "is_closed": false, "url": "https://www.yelp.com/biz/mama-ricottas-charlotte-16?adjust_creative=3j_hgEMT5cXMV0-4GMvDgQ&utm_campaign=yelp_api_v3&utm_medium=api_v3_business_search&utm_source=3j_hgEMT5cXMV0-4GMvDgQ", "review_count": 1008, "categories": [{"alias": "italian", "title": "Italian"}, {"alias": "venues", "title": "Venues & Event Spaces"}], "rating": 4.0, "coordinates": {"latitude": 35.2098855155106, "longitude": -80.8355979085983}, "transactions": ["delivery"], "price": "$$", "location": {"address1": "601 S Kings Dr Aa", "address2": "Ste AA", "address3": "", "city": "Charlotte", "zip_code": "28204", "country": "US", "state": "NC", "display_address": ["601 S Kings Dr Aa", "Ste AA", "Charlotte, NC 28204"]}, "phone": "+17043430148", "display_phone": "(704) 343-0148", "distance": 829.5969443541276}, {"id": "T1ezuBwruKcJWGKlNTkRNw", "alias": "bar-marcel-charlotte", "name": "Bar Marcel", "image_url": "https://s3-media4.fl.yelpcdn.com/bphoto/yStiaaGWC7E4vlu9GavfqQ/o.jpg", "is_closed": false, "url": "https://www.yelp.com/biz/bar-marcel-charlotte?adjust_creative=3j_hgEMT5cXMV0-4GMvDgQ&utm_campaign=yelp_api_v3&utm_medium=api_v3_business_search&utm_source=3j_hgEMT5cXMV0-4GMvDgQ", "review_count": 99, "categories": [{"alias": "italian", "title": "Italian"}, {"alias": "french", "title": "French"}, {"alias": "spanish", "title": "Spanish"}], "rating": 4.5, "coordinates": {"latitude": 35.156479401984, "longitude": -80.8234740674591}, "transactions": ["delivery"], "price": "$$$", "location": {"address1": "3920 Sharon Rd", "address2": "Ste 160", "address3": null, "city": "Charlotte", "zip_code": "28211", "country": "US", "state": "NC", "display_address": ["3920 Sharon Rd", "Ste 160", "Charlotte, NC 28211"]}, "phone": "+19802371919", "display_phone": "(980) 237-1919", "distance": 5394.410987422089}, {"id": "eiUE9RMAdWSMptNnE-SfMw", "alias": "the-jimmy-charlotte", "name": "The Jimmy", "image_url": "https://s3-media1.fl.yelpcdn.com/bphoto/NRH9lGmmutcjiJtf_fiB2g/o.jpg", "is_closed": false, "url": "https://www.yelp.com/biz/the-jimmy-charlotte?adjust_creative=3j_hgEMT5cXMV0-4GMvDgQ&utm_campaign=yelp_api_v3&utm_medium=api_v3_business_search&utm_source=3j_hgEMT5cXMV0-4GMvDgQ", "review_count": 58, "categories": [{"alias": "mediterranean", "title": "Mediterranean"}, {"alias": "italian", "title": "Italian"}, {"alias": "pizza", "title": "Pizza"}], "rating": 4.0, "coordinates": {"latitude": 35.17408720008127, "longitude": -80.83986580674186}, "transactions": ["delivery"], "location": {"address1": "2839 Selwyn Ave", "address2": "", "address3": null, "city": "Charlotte", "zip_code": "28209", "country": "US", "state": "NC", "display_address": ["2839 Selwyn Ave", "Charlotte, NC 28209"]}, "phone": "+17049794242", "display_phone": "(704) 979-4242", "distance": 3555.337343904327}, {"id": "32HnU5T7V9XhAAGiJiNXMg", "alias": "wheelz-pizza-charlotte-charlotte-2", "name": "Wheelz Pizza - Charlotte", "image_url": "https://s3-media3.fl.yelpcdn.com/bphoto/wp3TNl29aliu0CeqS7RCgQ/o.jpg", "is_closed": false, "url": "https://www.yelp.com/biz/wheelz-pizza-charlotte-charlotte-2?adjust_creative=3j_hgEMT5cXMV0-4GMvDgQ&utm_campaign=yelp_api_v3&utm_medium=api_v3_business_search&utm_source=3j_hgEMT5cXMV0-4GMvDgQ", "review_count": 37, "categories": [{"alias": "pizza", "title": "Pizza"}, {"alias": "foodtrucks", "title": "Food Trucks"}, {"alias": "italian", "title": "Italian"}], "rating": 4.5, "coordinates": {"latitude": 35.20704427244811, "longitude": -80.8351412800353}, "transactions": [], "location": {"address1": "901 S Kings Dr", "address2": "Ste 150", "address3": null, "city": "Charlotte", "zip_code": "28204", "country": "US", "state": "NC", "display_address": ["901 S Kings Dr", "Ste 150", "Charlotte, NC 28204"]}, "phone": "+17049005734", "display_phone": "(704) 900-5734", "distance": 617.4989055652214}, {"id": "HrR_2-HUE6cqnoz1zMN9AQ", "alias": "pizzeria-omaggio-charlotte-4", "name": "Pizzeria Omaggio", "image_url": "https://s3-media2.fl.yelpcdn.com/bphoto/9R8Kbbj_1UEYVR2l3xE9Aw/o.jpg", "is_closed": false, "url": "https://www.yelp.com/biz/pizzeria-omaggio-charlotte-4?adjust_creative=3j_hgEMT5cXMV0-4GMvDgQ&utm_campaign=yelp_api_v3&utm_medium=api_v3_business_search&utm_source=3j_hgEMT5cXMV0-4GMvDgQ", "review_count": 391, "categories": [{"alias": "pizza", "title": "Pizza"}, {"alias": "italian", "title": "Italian"}], "rating": 4.5, "coordinates": {"latitude": 35.2133541062856, "longitude": -80.8345772705002}, "transactions": ["pickup", "delivery"], "price": "$$", "location": {"address1": "1055 Metropolitan Ave", "address2": "Ste 130", "address3": "", "city": "Charlotte", "zip_code": "28204", "country": "US", "state": "NC", "display_address": ["1055 Metropolitan Ave", "Ste 130", "Charlotte, NC 28204"]}, "phone": "+17043700777", "display_phone": "(704) 370-0777", "distance": 1081.9246548843207}, {"id": "bJ44rSxMNTAAF_WGI_jDEw", "alias": "aqua-e-vino-charlotte", "name": "AQUA e VINO", "image_url": "https://s3-media4.fl.yelpcdn.com/bphoto/LBLxQt2OAWa6fl6NgawWIg/o.jpg", "is_closed": false, "url": "https://www.yelp.com/biz/aqua-e-vino-charlotte?adjust_creative=3j_hgEMT5cXMV0-4GMvDgQ&utm_campaign=yelp_api_v3&utm_medium=api_v3_business_search&utm_source=3j_hgEMT5cXMV0-4GMvDgQ", "review_count": 97, "categories": [{"alias": "italian", "title": "Italian"}], "rating": 4.5, "coordinates": {"latitude": 35.15662, "longitude": -80.7943497}, "transactions": ["delivery"], "price": "$$$", "location": {"address1": "4219 Providence Rd", "address2": "Ste 3", "address3": "", "city": "Charlotte", "zip_code": "28211", "country": "US", "state": "NC", "display_address": ["4219 Providence Rd", "Ste 3", "Charlotte, NC 28211"]}, "phone": "+17043644445", "display_phone": "(704) 364-4445", "distance": 6173.052651722418}, {"id": "CV05rBOr5DdDGvxUZkRFmg", "alias": "angelines-charlotte", "name": "Angeline's", "image_url": "https://s3-media4.fl.yelpcdn.com/bphoto/27OHmkFEr92pw3EA67QuDg/o.jpg", "is_closed": false, "url": "https://www.yelp.com/biz/angelines-charlotte?adjust_creative=3j_hgEMT5cXMV0-4GMvDgQ&utm_campaign=yelp_api_v3&utm_medium=api_v3_business_search&utm_source=3j_hgEMT5cXMV0-4GMvDgQ", "review_count": 246, "categories": [{"alias": "italian", "title": "Italian"}, {"alias": "cocktailbars", "title": "Cocktail Bars"}, {"alias": "pizza", "title": "Pizza"}], "rating": 3.5, "coordinates": {"latitude": 35.226389, "longitude": -80.846323}, "transactions": ["delivery"], "price": "$$", "location": {"address1": "303 S Church St", "address2": "", "address3": null, "city": "Charlotte", "zip_code": "28202", "country": "US", "state": "NC", "display_address": ["303 S Church St", "Charlotte, NC 28202"]}, "phone": "+17044452540", "display_phone": "(704) 445-2540", "distance": 2875.043442485031}, {"id": "xShBKXdoApYGoCm0CeUCTg", "alias": "figo36-charlotte", "name": "Figo36", "image_url": "https://s3-media2.fl.yelpcdn.com/bphoto/PL6wT9vfZiWvMcpwr7jRTg/o.jpg", "is_closed": false, "url": "https://www.yelp.com/biz/figo36-charlotte?adjust_creative=3j_hgEMT5cXMV0-4GMvDgQ&utm_campaign=yelp_api_v3&utm_medium=api_v3_business_search&utm_source=3j_hgEMT5cXMV0-4GMvDgQ", "review_count": 47, "categories": [{"alias": "italian", "title": "Italian"}], "rating": 3.5, "coordinates": {"latitude": 35.24868, "longitude": -80.80584}, "transactions": ["pickup", "delivery"], "location": {"address1": "416 E 36th St", "address2": "Ste 600", "address3": "", "city": "Charlotte", "zip_code": "28205", "country": "US", "state": "NC", "display_address": ["416 E 36th St", "Ste 600", "Charlotte, NC 28205"]}, "phone": "+17049190020", "display_phone": "(704) 919-0020", "distance": 5309.774710938927}, {"id": "V8CIeqgcz_Z0cKCDHZqY4g", "alias": "piada-italian-street-food-charlotte", "name": "Piada Italian Street Food", "image_url": "https://s3-media4.fl.yelpcdn.com/bphoto/idCy864jCP5uxReSwefCwg/o.jpg", "is_closed": false, "url": "https://www.yelp.com/biz/piada-italian-street-food-charlotte?adjust_creative=3j_hgEMT5cXMV0-4GMvDgQ&utm_campaign=yelp_api_v3&utm_medium=api_v3_business_search&utm_source=3j_hgEMT5cXMV0-4GMvDgQ", "review_count": 64, "categories": [{"alias": "salad", "title": "Salad"}, {"alias": "italian", "title": "Italian"}, {"alias": "wraps", "title": "Wraps"}], "rating": 3.5, "coordinates": {"latitude": 35.176358108947205, "longitude": -80.8024062}, "transactions": [], "price": "$$", "location": {"address1": "282 S Sharon Amity Rd", "address2": "Unit 337", "address3": null, "city": "Charlotte", "zip_code": "28211", "country": "US", "state": "NC", "display_address": ["282 S Sharon Amity Rd", "Unit 337", "Charlotte, NC 28211"]}, "phone": "+19807105500", "display_phone": "(980) 710-5500", "distance": 3975.307111704148}, {"id": "31acLzszeCCpeXmyAnoTdg", "alias": "stagioni-four-seasons-of-food-charlotte", "name": "Stagioni Four Seasons of Food", "image_url": "https://s3-media1.fl.yelpcdn.com/bphoto/sYBpH5dEe5q6MDy7ySq3qQ/o.jpg", "is_closed": false, "url": "https://www.yelp.com/biz/stagioni-four-seasons-of-food-charlotte?adjust_creative=3j_hgEMT5cXMV0-4GMvDgQ&utm_campaign=yelp_api_v3&utm_medium=api_v3_business_search&utm_source=3j_hgEMT5cXMV0-4GMvDgQ", "review_count": 294, "categories": [{"alias": "italian", "title": "Italian"}, {"alias": "bars", "title": "Bars"}], "rating": 4.0, "coordinates": {"latitude": 35.200325, "longitude": -80.824611}, "transactions": ["delivery"], "price": "$$$", "location": {"address1": "715 Providence Rd", "address2": "", "address3": "", "city": "Charlotte", "zip_code": "28207", "country": "US", "state": "NC", "display_address": ["715 Providence Rd", "Charlotte, NC 28207"]}, "phone": "+17043728110", "display_phone": "(704) 372-8110", "distance": 632.6752686371381}, {"id": "0OBIpASRyfUso8hui2a2CQ", "alias": "chicago-pete-s-charlotte", "name": "Chicago Pete\u2019s", "image_url": "https://s3-media1.fl.yelpcdn.com/bphoto/PPVrbQ9BpIsw4F0TcOX_kg/o.jpg", "is_closed": false, "url": "https://www.yelp.com/biz/chicago-pete-s-charlotte?adjust_creative=3j_hgEMT5cXMV0-4GMvDgQ&utm_campaign=yelp_api_v3&utm_medium=api_v3_business_search&utm_source=3j_hgEMT5cXMV0-4GMvDgQ", "review_count": 6, "categories": [{"alias": "pizza", "title": "Pizza"}, {"alias": "italian", "title": "Italian"}], "rating": 3.5, "coordinates": {"latitude": 35.22387377953682, "longitude": -80.84625057290104}, "transactions": [], "location": {"address1": "435 S Tryon St", "address2": "Ste 140", "address3": null, "city": "Charlotte", "zip_code": "28202", "country": "US", "state": "NC", "display_address": ["435 S Tryon St", "Ste 140", "Charlotte, NC 28202"]}, "phone": "+17046307777", "display_phone": "(704) 630-7777", "distance": 2641.9370280979165}, {"id": "zDDk9ig10Lw-5qNW9H8UwA", "alias": "forchetta-charlotte", "name": "forchetta", "image_url": "https://s3-media2.fl.yelpcdn.com/bphoto/DsUXPW-m-6SAi1gSRf_dUQ/o.jpg", "is_closed": false, "url": "https://www.yelp.com/biz/forchetta-charlotte?adjust_creative=3j_hgEMT5cXMV0-4GMvDgQ&utm_campaign=yelp_api_v3&utm_medium=api_v3_business_search&utm_source=3j_hgEMT5cXMV0-4GMvDgQ", "review_count": 75, "categories": [{"alias": "italian", "title": "Italian"}], "rating": 3.5, "coordinates": {"latitude": 35.2274354371269, "longitude": -80.8400387019045}, "transactions": ["pickup", "delivery"], "location": {"address1": "230 N College St", "address2": null, "address3": null, "city": "Charlotte", "zip_code": "28202", "country": "US", "state": "NC", "display_address": ["230 N College St", "Charlotte, NC 28202"]}, "phone": "+17046022750", "display_phone": "(704) 602-2750", "distance": 2713.000492084814}, {"id": "n7H4iyNxR77aFnS7b0aCiw", "alias": "leos-italian-social-charlotte-2", "name": "Leo's Italian Social", "image_url": "https://s3-media4.fl.yelpcdn.com/bphoto/5ML-HUAejOXjagUNT8mtrw/o.jpg", "is_closed": false, "url": "https://www.yelp.com/biz/leos-italian-social-charlotte-2?adjust_creative=3j_hgEMT5cXMV0-4GMvDgQ&utm_campaign=yelp_api_v3&utm_medium=api_v3_business_search&utm_source=3j_hgEMT5cXMV0-4GMvDgQ", "review_count": 75, "categories": [{"alias": "italian", "title": "Italian"}, {"alias": "pastashops", "title": "Pasta Shops"}, {"alias": "pizza", "title": "Pizza"}], "rating": 3.5, "coordinates": {"latitude": 35.15175576580479, "longitude": -80.84029094990255}, "transactions": ["pickup", "delivery"], "location": {"address1": "4720 Piedmont Row", "address2": "Ste 150", "address3": null, "city": "Charlotte", "zip_code": "28210", "country": "US", "state": "NC", "display_address": ["4720 Piedmont Row", "Ste 150", "Charlotte, NC 28210"]}, "phone": "+19802376880", "display_phone": "(980) 237-6880", "distance": 5986.499535810491}, {"id": "MtvN8vMiKcLkkz_tCvBx3g", "alias": "aria-charlotte", "name": "Aria", "image_url": "https://s3-media4.fl.yelpcdn.com/bphoto/XkSYniRM6-Yj6yZ9n9pN_g/o.jpg", "is_closed": false, "url": "https://www.yelp.com/biz/aria-charlotte?adjust_creative=3j_hgEMT5cXMV0-4GMvDgQ&utm_campaign=yelp_api_v3&utm_medium=api_v3_business_search&utm_source=3j_hgEMT5cXMV0-4GMvDgQ", "review_count": 521, "categories": [{"alias": "italian", "title": "Italian"}, {"alias": "newamerican", "title": "American (New)"}], "rating": 4.0, "coordinates": {"latitude": 35.2266656114995, "longitude": -80.8420670306885}, "transactions": ["pickup", "delivery"], "price": "$$", "location": {"address1": "100 N Tryon St", "address2": "", "address3": "", "city": "Charlotte", "zip_code": "28202", "country": "US", "state": "NC", "display_address": ["100 N Tryon St", "Charlotte, NC 28202"]}, "phone": "+17043768880", "display_phone": "(704) 376-8880", "distance": 2709.6795062522415}, {"id": "Z7i4mWhFmc6I_l_Mtzin9g", "alias": "volo-ristorante-charlotte", "name": "Volo Ristorante", "image_url": "https://s3-media2.fl.yelpcdn.com/bphoto/-sOoXw1KKgcphlHp8e5ziw/o.jpg", "is_closed": false, "url": "https://www.yelp.com/biz/volo-ristorante-charlotte?adjust_creative=3j_hgEMT5cXMV0-4GMvDgQ&utm_campaign=yelp_api_v3&utm_medium=api_v3_business_search&utm_source=3j_hgEMT5cXMV0-4GMvDgQ", "review_count": 69, "categories": [{"alias": "italian", "title": "Italian"}, {"alias": "wine_bars", "title": "Wine Bars"}, {"alias": "desserts", "title": "Desserts"}], "rating": 4.0, "coordinates": {"latitude": 35.1948, "longitude": -80.82581}, "transactions": ["delivery"], "location": {"address1": "1039 Providence Rd", "address2": null, "address3": "", "city": "Charlotte", "zip_code": "28207", "country": "US", "state": "NC", "display_address": ["1039 Providence Rd", "Charlotte, NC 28207"]}, "phone": "+17049191020", "display_phone": "(704) 919-1020", "distance": 1115.9993990449932}, {"id": "WPV0ucYjnb2HOrNxSopv6A", "alias": "hawthornes-ny-pizza-and-bar-charlotte-8", "name": "Hawthorne's NY Pizza & Bar", "image_url": "https://s3-media3.fl.yelpcdn.com/bphoto/XrqpU6H_ipWPnjlMJYxshg/o.jpg", "is_closed": false, "url": "https://www.yelp.com/biz/hawthornes-ny-pizza-and-bar-charlotte-8?adjust_creative=3j_hgEMT5cXMV0-4GMvDgQ&utm_campaign=yelp_api_v3&utm_medium=api_v3_business_search&utm_source=3j_hgEMT5cXMV0-4GMvDgQ", "review_count": 286, "categories": [{"alias": "pizza", "title": "Pizza"}, {"alias": "bars", "title": "Bars"}, {"alias": "italian", "title": "Italian"}], "rating": 4.0, "coordinates": {"latitude": 35.2159184072462, "longitude": -80.82172901195447}, "transactions": ["pickup", "delivery"], "price": "$$", "location": {"address1": "1701 E 7th St", "address2": null, "address3": "", "city": "Charlotte", "zip_code": "28204", "country": "US", "state": "NC", "display_address": ["1701 E 7th St", "Charlotte, NC 28204"]}, "phone": "+17043589339", "display_phone": "(704) 358-9339", "distance": 1400.072739996084}, {"id": "w3PwDEbI0EDx4YI_BkFhIA", "alias": "portofinos-charlotte-2", "name": "Portofino's", "image_url": "https://s3-media2.fl.yelpcdn.com/bphoto/XffFXXhMJvol-yaY_1_pBw/o.jpg", "is_closed": false, "url": "https://www.yelp.com/biz/portofinos-charlotte-2?adjust_creative=3j_hgEMT5cXMV0-4GMvDgQ&utm_campaign=yelp_api_v3&utm_medium=api_v3_business_search&utm_source=3j_hgEMT5cXMV0-4GMvDgQ", "review_count": 336, "categories": [{"alias": "italian", "title": "Italian"}, {"alias": "pizza", "title": "Pizza"}], "rating": 4.0, "coordinates": {"latitude": 35.16073, "longitude": -80.84985}, "transactions": ["delivery"], "price": "$$", "location": {"address1": "5126 Park Rd", "address2": "Ste 1c", "address3": "", "city": "Charlotte", "zip_code": "28209", "country": "US", "state": "NC", "display_address": ["5126 Park Rd", "Ste 1c", "Charlotte, NC 28209"]}, "phone": "+17045270702", "display_phone": "(704) 527-0702", "distance": 5281.193701309041}, {"id": "OwzqgrpKs9nojICU65hhzg", "alias": "pizzeria-sapienza-clt-charlotte-2", "name": "Pizzeria Sapienza CLT", "image_url": "https://s3-media3.fl.yelpcdn.com/bphoto/cU_Bzl4nLj5qpEmsMUlRFQ/o.jpg", "is_closed": false, "url": "https://www.yelp.com/biz/pizzeria-sapienza-clt-charlotte-2?adjust_creative=3j_hgEMT5cXMV0-4GMvDgQ&utm_campaign=yelp_api_v3&utm_medium=api_v3_business_search&utm_source=3j_hgEMT5cXMV0-4GMvDgQ", "review_count": 182, "categories": [{"alias": "pizza", "title": "Pizza"}, {"alias": "sandwiches", "title": "Sandwiches"}, {"alias": "italian", "title": "Italian"}], "rating": 4.0, "coordinates": {"latitude": 35.23178, "longitude": -80.83818}, "transactions": ["pickup", "delivery"], "price": "$$", "location": {"address1": "620 N Church St", "address2": "", "address3": null, "city": "Charlotte", "zip_code": "28202", "country": "US", "state": "NC", "display_address": ["620 N Church St", "Charlotte, NC 28202"]}, "phone": "+19802070354", "display_phone": "(980) 207-0354", "distance": 3119.273799570878}, {"id": "JINRDdRySfQNhajHmmCCrg", "alias": "wrigleys-italian-beef-charlotte", "name": "Wrigleys Italian Beef", "image_url": "https://s3-media4.fl.yelpcdn.com/bphoto/P42Hwy9e1Ri0EbwHtjsfVg/o.jpg", "is_closed": false, "url": "https://www.yelp.com/biz/wrigleys-italian-beef-charlotte?adjust_creative=3j_hgEMT5cXMV0-4GMvDgQ&utm_campaign=yelp_api_v3&utm_medium=api_v3_business_search&utm_source=3j_hgEMT5cXMV0-4GMvDgQ", "review_count": 0, "categories": [{"alias": "sandwiches", "title": "Sandwiches"}, {"alias": "italian", "title": "Italian"}, {"alias": "hotdog", "title": "Hot Dogs"}], "rating": 0.0, "coordinates": {"latitude": 35.22025656945813, "longitude": -80.86068677522809}, "transactions": [], "location": {"address1": "500 W Summit Ave", "address2": null, "address3": "", "city": "Charlotte", "zip_code": "28203", "country": "US", "state": "NC", "display_address": ["500 W Summit Ave", "Charlotte, NC 28203"]}, "phone": "+19802421600", "display_phone": "(980) 242-1600", "distance": 3358.798769402226}, {"id": "QReGruZEFxovIm9FJVa1kw", "alias": "zio-casual-italian-charlotte", "name": "Zio Casual Italian", "image_url": "https://s3-media2.fl.yelpcdn.com/bphoto/ucxUUiqQCMXADnlKWvolyA/o.jpg", "is_closed": false, "url": "https://www.yelp.com/biz/zio-casual-italian-charlotte?adjust_creative=3j_hgEMT5cXMV0-4GMvDgQ&utm_campaign=yelp_api_v3&utm_medium=api_v3_business_search&utm_source=3j_hgEMT5cXMV0-4GMvDgQ", "review_count": 183, "categories": [{"alias": "italian", "title": "Italian"}, {"alias": "pizza", "title": "Pizza"}], "rating": 4.0, "coordinates": {"latitude": 35.197518, "longitude": -80.825545}, "transactions": ["delivery"], "price": "$$", "location": {"address1": "116 Middleton Dr", "address2": "", "address3": "", "city": "Charlotte", "zip_code": "28207", "country": "US", "state": "NC", "display_address": ["116 Middleton Dr", "Charlotte, NC 28207"]}, "phone": "+17043440100", "display_phone": "(704) 344-0100", "distance": 864.8706520028235}, {"id": "Lu5hB_5YtX5Re2067Zf3cg", "alias": "mezzanotte-ristorante-charlotte", "name": "Mezzanotte Ristorante", "image_url": "https://s3-media3.fl.yelpcdn.com/bphoto/G5zsMVmHsHziinWbfQXhVQ/o.jpg", "is_closed": false, "url": "https://www.yelp.com/biz/mezzanotte-ristorante-charlotte?adjust_creative=3j_hgEMT5cXMV0-4GMvDgQ&utm_campaign=yelp_api_v3&utm_medium=api_v3_business_search&utm_source=3j_hgEMT5cXMV0-4GMvDgQ", "review_count": 131, "categories": [{"alias": "pizza", "title": "Pizza"}, {"alias": "italian", "title": "Italian"}], "rating": 4.0, "coordinates": {"latitude": 35.17122, "longitude": -80.80724}, "transactions": ["restaurant_reservation", "delivery"], "price": "$$", "location": {"address1": "2907 Providence Rd", "address2": "Ste 100", "address3": null, "city": "Charlotte", "zip_code": "28211", "country": "US", "state": "NC", "display_address": ["2907 Providence Rd", "Ste 100", "Charlotte, NC 28211"]}, "phone": "+17043654650", "display_phone": "(704) 365-4650", "distance": 4203.748322739623}, {"id": "YtL8KEZFrfIsH8tVD1SwCg", "alias": "primo-prime-charlotte-3", "name": "Primo Prime", "image_url": "https://s3-media4.fl.yelpcdn.com/bphoto/Cq7z4py8uv5Jy7syayJtMA/o.jpg", "is_closed": false, "url": "https://www.yelp.com/biz/primo-prime-charlotte-3?adjust_creative=3j_hgEMT5cXMV0-4GMvDgQ&utm_campaign=yelp_api_v3&utm_medium=api_v3_business_search&utm_source=3j_hgEMT5cXMV0-4GMvDgQ", "review_count": 39, "categories": [{"alias": "italian", "title": "Italian"}, {"alias": "cocktailbars", "title": "Cocktail Bars"}, {"alias": "wine_bars", "title": "Wine Bars"}], "rating": 4.5, "coordinates": {"latitude": 35.19752, "longitude": -80.82555}, "transactions": ["delivery"], "price": "$$", "location": {"address1": "116 Middleton Dr", "address2": null, "address3": "", "city": "Charlotte", "zip_code": "28207", "country": "US", "state": "NC", "display_address": ["116 Middleton Dr", "Charlotte, NC 28207"]}, "phone": "+17043343346", "display_phone": "(704) 334-3346", "distance": 863.5789262416415}, {"id": "eQo4kIwIWJbAnfXYl3k5BA", "alias": "portofinos-italian-restaurant-and-pizzeria-charlotte", "name": "Portofino's Italian Restaurant & Pizzeria", "image_url": "https://s3-media3.fl.yelpcdn.com/bphoto/RMmpc7Di13dVoYrkGb83Cg/o.jpg", "is_closed": false, "url": "https://www.yelp.com/biz/portofinos-italian-restaurant-and-pizzeria-charlotte?adjust_creative=3j_hgEMT5cXMV0-4GMvDgQ&utm_campaign=yelp_api_v3&utm_medium=api_v3_business_search&utm_source=3j_hgEMT5cXMV0-4GMvDgQ", "review_count": 255, "categories": [{"alias": "italian", "title": "Italian"}, {"alias": "pizza", "title": "Pizza"}], "rating": 4.0, "coordinates": {"latitude": 35.21297629892978, "longitude": -80.78288993470262}, "transactions": ["delivery"], "price": "$$", "location": {"address1": "3124 Eastway Dr", "address2": "Ste 510", "address3": "", "city": "Charlotte", "zip_code": "28205", "country": "US", "state": "NC", "display_address": ["3124 Eastway Dr", "Ste 510", "Charlotte, NC 28205"]}, "phone": "+17045687933", "display_phone": "(704) 568-7933", "distance": 4280.956586830217}, {"id": "YzMUZjUMcgI-NSGu48-nIQ", "alias": "dolce-ristorante-charlotte", "name": "Dolce Ristorante", "image_url": "https://s3-media1.fl.yelpcdn.com/bphoto/DJDdv5ozkEYp_UCxG3dvWA/o.jpg", "is_closed": false, "url": "https://www.yelp.com/biz/dolce-ristorante-charlotte?adjust_creative=3j_hgEMT5cXMV0-4GMvDgQ&utm_campaign=yelp_api_v3&utm_medium=api_v3_business_search&utm_source=3j_hgEMT5cXMV0-4GMvDgQ", "review_count": 283, "categories": [{"alias": "italian", "title": "Italian"}, {"alias": "newamerican", "title": "American (New)"}, {"alias": "wine_bars", "title": "Wine Bars"}], "rating": 4.0, "coordinates": {"latitude": 35.2027004957199, "longitude": -80.8441145718098}, "transactions": ["pickup", "delivery"], "price": "$$", "location": {"address1": "1710 Kenilworth Ave", "address2": "Ste 203", "address3": "", "city": "Charlotte", "zip_code": "28203", "country": "US", "state": "NC", "display_address": ["1710 Kenilworth Ave", "Ste 203", "Charlotte, NC 28203"]}, "phone": "+17043327525", "display_phone": "(704) 332-7525", "distance": 1427.0183369806628}, {"id": "uDb1lOfDhl_VLmAbYvp-vQ", "alias": "benny-pennellos-charlotte", "name": "Benny Pennello's", "image_url": "https://s3-media4.fl.yelpcdn.com/bphoto/UfNHca3ROmN0QiqTSKRUyg/o.jpg", "is_closed": false, "url": "https://www.yelp.com/biz/benny-pennellos-charlotte?adjust_creative=3j_hgEMT5cXMV0-4GMvDgQ&utm_campaign=yelp_api_v3&utm_medium=api_v3_business_search&utm_source=3j_hgEMT5cXMV0-4GMvDgQ", "review_count": 493, "categories": [{"alias": "pizza", "title": "Pizza"}, {"alias": "italian", "title": "Italian"}], "rating": 4.0, "coordinates": {"latitude": 35.24531, "longitude": -80.80956}, "transactions": ["pickup", "delivery"], "price": "$", "location": {"address1": "2909 N Davidson St", "address2": "Ste 100", "address3": "", "city": "Charlotte", "zip_code": "28205", "country": "US", "state": "NC", "display_address": ["2909 N Davidson St", "Ste 100", "Charlotte, NC 28205"]}, "phone": "+19809498398", "display_phone": "(980) 949-8398", "distance": 4853.267126661863}, {"id": "cy3Or8iSsDOmHBBu2MwnOg", "alias": "toscana-charlotte", "name": "Toscana", "image_url": "https://s3-media3.fl.yelpcdn.com/bphoto/i_BpCZOGXZTqSsV0Eit48g/o.jpg", "is_closed": false, "url": "https://www.yelp.com/biz/toscana-charlotte?adjust_creative=3j_hgEMT5cXMV0-4GMvDgQ&utm_campaign=yelp_api_v3&utm_medium=api_v3_business_search&utm_source=3j_hgEMT5cXMV0-4GMvDgQ", "review_count": 169, "categories": [{"alias": "italian", "title": "Italian"}], "rating": 4.0, "coordinates": {"latitude": 35.156363, "longitude": -80.831393}, "transactions": ["delivery"], "price": "$$$", "location": {"address1": "6401 Morrison Blvd", "address2": "Ste 6B", "address3": "", "city": "Charlotte", "zip_code": "28211", "country": "US", "state": "NC", "display_address": ["6401 Morrison Blvd", "Ste 6B", "Charlotte, NC 28211"]}, "phone": "+17043671808", "display_phone": "(704) 367-1808", "distance": 5389.148251072443}, {"id": "Z072pEHdos2Gjj3nMdR6uA", "alias": "luce-restaurant-and-bar-charlotte", "name": "Luce Restaurant & Bar", "image_url": "https://s3-media2.fl.yelpcdn.com/bphoto/OGxT2mR0D0AXoh3ZRNbc7g/o.jpg", "is_closed": false, "url": "https://www.yelp.com/biz/luce-restaurant-and-bar-charlotte?adjust_creative=3j_hgEMT5cXMV0-4GMvDgQ&utm_campaign=yelp_api_v3&utm_medium=api_v3_business_search&utm_source=3j_hgEMT5cXMV0-4GMvDgQ", "review_count": 269, "categories": [{"alias": "italian", "title": "Italian"}], "rating": 4.0, "coordinates": {"latitude": 35.22777, "longitude": -80.84071}, "transactions": ["delivery"], "price": "$$$", "location": {"address1": "214 N Tryon St", "address2": "Ste J", "address3": "", "city": "Charlotte", "zip_code": "28202", "country": "US", "state": "NC", "display_address": ["214 N Tryon St", "Ste J", "Charlotte, NC 28202"]}, "phone": "+17043449222", "display_phone": "(704) 344-9222", "distance": 2837.7885445958686}, {"id": "dRib7YK9Mtqgvfqsf-PKrw", "alias": "uncle-maddios-pizza-charlotte", "name": "Uncle Maddio's Pizza", "image_url": "https://s3-media3.fl.yelpcdn.com/bphoto/Fz7jMcMOv1TH339Sqxt2XA/o.jpg", "is_closed": false, "url": "https://www.yelp.com/biz/uncle-maddios-pizza-charlotte?adjust_creative=3j_hgEMT5cXMV0-4GMvDgQ&utm_campaign=yelp_api_v3&utm_medium=api_v3_business_search&utm_source=3j_hgEMT5cXMV0-4GMvDgQ", "review_count": 96, "categories": [{"alias": "pizza", "title": "Pizza"}, {"alias": "chicken_wings", "title": "Chicken Wings"}, {"alias": "italian", "title": "Italian"}], "rating": 3.5, "coordinates": {"latitude": 35.2128004, "longitude": -80.8339267}, "transactions": ["pickup", "delivery"], "price": "$$", "location": {"address1": "345 S Kings Dr", "address2": "", "address3": null, "city": "Charlotte", "zip_code": "28204", "country": "US", "state": "NC", "display_address": ["345 S Kings Dr", "Charlotte, NC 28204"]}, "phone": "+19804063234", "display_phone": "(980) 406-3234", "distance": 903.1955751736245}, {"id": "D9lD94DxHYi3lKBhLf_KCg", "alias": "the-bella-ciao-charlotte", "name": "The Bella Ciao", "image_url": "https://s3-media2.fl.yelpcdn.com/bphoto/sS6moACVB_n5QHIyiXVAXA/o.jpg", "is_closed": false, "url": "https://www.yelp.com/biz/the-bella-ciao-charlotte?adjust_creative=3j_hgEMT5cXMV0-4GMvDgQ&utm_campaign=yelp_api_v3&utm_medium=api_v3_business_search&utm_source=3j_hgEMT5cXMV0-4GMvDgQ", "review_count": 173, "categories": [{"alias": "italian", "title": "Italian"}, {"alias": "pizza", "title": "Pizza"}, {"alias": "bars", "title": "Bars"}], "rating": 3.5, "coordinates": {"latitude": 35.22615540568612, "longitude": -80.8443240254323}, "transactions": ["pickup", "delivery"], "price": "$$", "location": {"address1": "201 S Tryon St", "address2": null, "address3": "", "city": "Charlotte", "zip_code": "28202", "country": "US", "state": "NC", "display_address": ["201 S Tryon St", "Charlotte, NC 28202"]}, "phone": "+17043322440", "display_phone": "(704) 332-2440", "distance": 2756.9789637154413}, {"id": "jNQnscvgn_dMTS954qW_9Q", "alias": "the-open-kitchen-charlotte", "name": "The Open Kitchen", "image_url": "https://s3-media1.fl.yelpcdn.com/bphoto/YRMiRrn1s8cVO84qfts4aw/o.jpg", "is_closed": false, "url": "https://www.yelp.com/biz/the-open-kitchen-charlotte?adjust_creative=3j_hgEMT5cXMV0-4GMvDgQ&utm_campaign=yelp_api_v3&utm_medium=api_v3_business_search&utm_source=3j_hgEMT5cXMV0-4GMvDgQ", "review_count": 187, "categories": [{"alias": "italian", "title": "Italian"}, {"alias": "soup", "title": "Soup"}, {"alias": "sandwiches", "title": "Sandwiches"}], "rating": 3.0, "coordinates": {"latitude": 35.2292854, "longitude": -80.86339673313368}, "transactions": ["pickup", "delivery"], "price": "$$", "location": {"address1": "1318 W Morehead St", "address2": "", "address3": "", "city": "Charlotte", "zip_code": "28208", "country": "US", "state": "NC", "display_address": ["1318 W Morehead St", "Charlotte, NC 28208"]}, "phone": "+17043757449", "display_phone": "(704) 375-7449", "distance": 4150.103899193771}, {"id": "yatT2q_zmb4-yvzr9Bx5lA", "alias": "bisonte-pizza-charlotte-3", "name": "Bisonte Pizza", "image_url": "https://s3-media3.fl.yelpcdn.com/bphoto/hYwOiF_aGQLYinSnnKzhWg/o.jpg", "is_closed": false, "url": "https://www.yelp.com/biz/bisonte-pizza-charlotte-3?adjust_creative=3j_hgEMT5cXMV0-4GMvDgQ&utm_campaign=yelp_api_v3&utm_medium=api_v3_business_search&utm_source=3j_hgEMT5cXMV0-4GMvDgQ", "review_count": 208, "categories": [{"alias": "chicken_wings", "title": "Chicken Wings"}, {"alias": "pizza", "title": "Pizza"}, {"alias": "italian", "title": "Italian"}], "rating": 4.0, "coordinates": {"latitude": 35.2326000526172, "longitude": -80.8490900695324}, "transactions": ["pickup", "delivery"], "price": "$$", "location": {"address1": "710 W Trade St", "address2": "", "address3": null, "city": "Charlotte", "zip_code": "28202", "country": "US", "state": "NC", "display_address": ["710 W Trade St", "Charlotte, NC 28202"]}, "phone": "+19802424395", "display_phone": "(980) 242-4395", "distance": 3594.153748672963}, {"id": "wkZ6P5fDw0G_iFRU-hzBhQ", "alias": "the-pizza-peel-charlotte-3", "name": "The Pizza Peel", "image_url": "https://s3-media2.fl.yelpcdn.com/bphoto/oH-B5_70s7Md5spdyE97fA/o.jpg", "is_closed": false, "url": "https://www.yelp.com/biz/the-pizza-peel-charlotte-3?adjust_creative=3j_hgEMT5cXMV0-4GMvDgQ&utm_campaign=yelp_api_v3&utm_medium=api_v3_business_search&utm_source=3j_hgEMT5cXMV0-4GMvDgQ", "review_count": 194, "categories": [{"alias": "pizza", "title": "Pizza"}, {"alias": "italian", "title": "Italian"}, {"alias": "sandwiches", "title": "Sandwiches"}], "rating": 4.0, "coordinates": {"latitude": 35.1766999, "longitude": -80.79783}, "transactions": ["delivery", "pickup"], "price": "$$", "location": {"address1": "4422 Colwick Rd", "address2": "", "address3": "", "city": "Charlotte", "zip_code": "28211", "country": "US", "state": "NC", "display_address": ["4422 Colwick Rd", "Charlotte, NC 28211"]}, "phone": "+17047148808", "display_phone": "(704) 714-8808", "distance": 4212.345134103805}, {"id": "JogUSDKa1xyG3lLEmD4Xjg", "alias": "fiamma-charlotte-2", "name": "Fiamma", "image_url": "https://s3-media3.fl.yelpcdn.com/bphoto/EU1X7Q2uxhH5pGWROxoUNA/o.jpg", "is_closed": false, "url": "https://www.yelp.com/biz/fiamma-charlotte-2?adjust_creative=3j_hgEMT5cXMV0-4GMvDgQ&utm_campaign=yelp_api_v3&utm_medium=api_v3_business_search&utm_source=3j_hgEMT5cXMV0-4GMvDgQ", "review_count": 361, "categories": [{"alias": "italian", "title": "Italian"}], "rating": 4.0, "coordinates": {"latitude": 35.1976756, "longitude": -80.8519236}, "transactions": ["delivery", "pickup"], "price": "$$", "location": {"address1": "2418 Park Rd", "address2": "", "address3": "", "city": "Charlotte", "zip_code": "28263", "country": "US", "state": "NC", "display_address": ["2418 Park Rd", "Charlotte, NC 28263"]}, "phone": "+17043333062", "display_phone": "(704) 333-3062", "distance": 2282.461206094491}, {"id": "IcSIs7YncDdqBDK1KpZDbg", "alias": "dolce-osteria-charlotte", "name": "Dolce Osteria", "image_url": "https://s3-media4.fl.yelpcdn.com/bphoto/bLNB5sdchRWvqglI5jsauQ/o.jpg", "is_closed": false, "url": "https://www.yelp.com/biz/dolce-osteria-charlotte?adjust_creative=3j_hgEMT5cXMV0-4GMvDgQ&utm_campaign=yelp_api_v3&utm_medium=api_v3_business_search&utm_source=3j_hgEMT5cXMV0-4GMvDgQ", "review_count": 2, "categories": [{"alias": "italian", "title": "Italian"}, {"alias": "salad", "title": "Salad"}, {"alias": "sandwiches", "title": "Sandwiches"}], "rating": 5.0, "coordinates": {"latitude": 35.20261460130371, "longitude": -80.84440985562706}, "transactions": [], "location": {"address1": "1710 Kenilworth Ave", "address2": "", "address3": null, "city": "Charlotte", "zip_code": "28203", "country": "US", "state": "NC", "display_address": ["1710 Kenilworth Ave", "Charlotte, NC 28203"]}, "phone": "+17043327525", "display_phone": "(704) 332-7525", "distance": 1426.925171293973}, {"id": "Bggzxp9FqBryg4QI0uwqXw", "alias": "livys-neapolitan-pizzeria-charlotte", "name": "Livy's Neapolitan Pizzeria", "image_url": "https://s3-media4.fl.yelpcdn.com/bphoto/CnlcgHUShp6rdt0YE1zupQ/o.jpg", "is_closed": false, "url": "https://www.yelp.com/biz/livys-neapolitan-pizzeria-charlotte?adjust_creative=3j_hgEMT5cXMV0-4GMvDgQ&utm_campaign=yelp_api_v3&utm_medium=api_v3_business_search&utm_source=3j_hgEMT5cXMV0-4GMvDgQ", "review_count": 12, "categories": [{"alias": "pizza", "title": "Pizza"}, {"alias": "italian", "title": "Italian"}], "rating": 4.5, "coordinates": {"latitude": 35.249708421278, "longitude": -80.8325914666057}, "transactions": ["delivery"], "location": {"address1": "1030 Woodward Ave", "address2": "", "address3": null, "city": "Charlotte", "zip_code": "28206", "country": "US", "state": "NC", "display_address": ["1030 Woodward Ave", "Charlotte, NC 28206"]}, "phone": "+17045953111", "display_phone": "(704) 595-3111", "distance": 5006.072721764127}, {"id": "SXgVJz5aIvbeCXWvg0ZuNg", "alias": "the-pizza-peel-and-tap-room-charlotte", "name": "The Pizza Peel & Tap Room", "image_url": "https://s3-media3.fl.yelpcdn.com/bphoto/vvjViisti9AvbhRRBgBRLQ/o.jpg", "is_closed": false, "url": "https://www.yelp.com/biz/the-pizza-peel-and-tap-room-charlotte?adjust_creative=3j_hgEMT5cXMV0-4GMvDgQ&utm_campaign=yelp_api_v3&utm_medium=api_v3_business_search&utm_source=3j_hgEMT5cXMV0-4GMvDgQ", "review_count": 235, "categories": [{"alias": "pizza", "title": "Pizza"}, {"alias": "italian", "title": "Italian"}], "rating": 3.5, "coordinates": {"latitude": 35.22006, "longitude": -80.81197}, "transactions": ["delivery", "pickup"], "price": "$$", "location": {"address1": "1600 Central Ave", "address2": null, "address3": "", "city": "Charlotte", "zip_code": "28205", "country": "US", "state": "NC", "display_address": ["1600 Central Ave", "Charlotte, NC 28205"]}, "phone": "+17047907335", "display_phone": "(704) 790-7335", "distance": 2295.389349144812}, {"id": "Q1L_Nb1QsD0S9pbng5-kMQ", "alias": "portofinos-italian-restaurant-ayrsley-charlotte-2", "name": "Portofino's Italian Restaurant Ayrsley", "image_url": "https://s3-media1.fl.yelpcdn.com/bphoto/M7sIv6XOrEfxRCaezeoRiQ/o.jpg", "is_closed": false, "url": "https://www.yelp.com/biz/portofinos-italian-restaurant-ayrsley-charlotte-2?adjust_creative=3j_hgEMT5cXMV0-4GMvDgQ&utm_campaign=yelp_api_v3&utm_medium=api_v3_business_search&utm_source=3j_hgEMT5cXMV0-4GMvDgQ", "review_count": 237, "categories": [{"alias": "italian", "title": "Italian"}, {"alias": "pizza", "title": "Pizza"}, {"alias": "wine_bars", "title": "Wine Bars"}], "rating": 3.5, "coordinates": {"latitude": 35.1384009100078, "longitude": -80.9331648601188}, "transactions": ["delivery", "pickup"], "price": "$$", "location": {"address1": "2127 Ayrsley Town Blvd", "address2": "", "address3": "", "city": "Charlotte", "zip_code": "28273", "country": "US", "state": "NC", "display_address": ["2127 Ayrsley Town Blvd", "Charlotte, NC 28273"]}, "phone": "+19802977090", "display_phone": "(980) 297-7090", "distance": 12010.45534936199}, {"id": "AuIiqDeL65kczmiFSkAWrA", "alias": "maggianos-little-italy-charlotte", "name": "Maggiano's Little Italy", "image_url": "https://s3-media1.fl.yelpcdn.com/bphoto/eR6UDKk8-u29W3oaCm86yA/o.jpg", "is_closed": false, "url": "https://www.yelp.com/biz/maggianos-little-italy-charlotte?adjust_creative=3j_hgEMT5cXMV0-4GMvDgQ&utm_campaign=yelp_api_v3&utm_medium=api_v3_business_search&utm_source=3j_hgEMT5cXMV0-4GMvDgQ", "review_count": 583, "categories": [{"alias": "italian", "title": "Italian"}, {"alias": "bars", "title": "Bars"}, {"alias": "venues", "title": "Venues & Event Spaces"}], "rating": 3.5, "coordinates": {"latitude": 35.152157023777, "longitude": -80.8302691113617}, "transactions": ["delivery", "pickup"], "price": "$$", "location": {"address1": "4400 Sharon Rd", "address2": "", "address3": "", "city": "Charlotte", "zip_code": "28211", "country": "US", "state": "NC", "display_address": ["4400 Sharon Rd", "Charlotte, NC 28211"]}, "phone": "+17049162300", "display_phone": "(704) 916-2300", "distance": 5853.44837331112}, {"id": "7r_DkJJ3tVahoqdNMJbUVQ", "alias": "mano-bella-artisan-foods-charlotte", "name": "Mano Bella Artisan Foods", "image_url": "https://s3-media1.fl.yelpcdn.com/bphoto/-CamnkfyVUeVnzFlcpgqpA/o.jpg", "is_closed": false, "url": "https://www.yelp.com/biz/mano-bella-artisan-foods-charlotte?adjust_creative=3j_hgEMT5cXMV0-4GMvDgQ&utm_campaign=yelp_api_v3&utm_medium=api_v3_business_search&utm_source=3j_hgEMT5cXMV0-4GMvDgQ", "review_count": 9, "categories": [{"alias": "italian", "title": "Italian"}, {"alias": "pastashops", "title": "Pasta Shops"}, {"alias": "farmersmarket", "title": "Farmers Market"}], "rating": 3.5, "coordinates": {"latitude": 35.22755, "longitude": -80.83843}, "transactions": ["delivery", "pickup"], "location": {"address1": "224 E 7th St", "address2": "", "address3": null, "city": "Charlotte", "zip_code": "28202", "country": "US", "state": "NC", "display_address": ["224 E 7th St", "Charlotte, NC 28202"]}, "phone": "+17044934992", "display_phone": "(704) 493-4992", "distance": 2689.8480603143603}, {"id": "uYcHB2sBc8ZQF_O9r89Wyg", "alias": "ava-pizzaria-charlotte", "name": "Ava Pizzaria", "image_url": "https://s3-media3.fl.yelpcdn.com/bphoto/eVc-0jnFe6ql2i1FN7mNWw/o.jpg", "is_closed": false, "url": "https://www.yelp.com/biz/ava-pizzaria-charlotte?adjust_creative=3j_hgEMT5cXMV0-4GMvDgQ&utm_campaign=yelp_api_v3&utm_medium=api_v3_business_search&utm_source=3j_hgEMT5cXMV0-4GMvDgQ", "review_count": 46, "categories": [{"alias": "pizza", "title": "Pizza"}, {"alias": "italian", "title": "Italian"}], "rating": 3.0, "coordinates": {"latitude": 35.233096770286, "longitude": -80.82799281424079}, "transactions": ["delivery", "pickup"], "location": {"address1": "1115 N Brevard St", "address2": "", "address3": null, "city": "Charlotte", "zip_code": "28206", "country": "US", "state": "NC", "display_address": ["1115 N Brevard St", "Charlotte, NC 28206"]}, "phone": "", "display_phone": "", "distance": 3149.048159239819}, {"id": "Yc5_nA9NqqxOp8WCugF-Ng", "alias": "500-degrees-pizzeria-charlotte-2", "name": "500 Degrees Pizzeria", "image_url": "https://s3-media1.fl.yelpcdn.com/bphoto/HElISnI5nr_eHLn77vV00Q/o.jpg", "is_closed": false, "url": "https://www.yelp.com/biz/500-degrees-pizzeria-charlotte-2?adjust_creative=3j_hgEMT5cXMV0-4GMvDgQ&utm_campaign=yelp_api_v3&utm_medium=api_v3_business_search&utm_source=3j_hgEMT5cXMV0-4GMvDgQ", "review_count": 245, "categories": [{"alias": "pizza", "title": "Pizza"}, {"alias": "italian", "title": "Italian"}], "rating": 3.5, "coordinates": {"latitude": 35.15357, "longitude": -80.87615}, "transactions": ["delivery", "pickup"], "price": "$", "location": {"address1": "6037 South Blvd", "address2": "", "address3": "", "city": "Charlotte", "zip_code": "28217", "country": "US", "state": "NC", "display_address": ["6037 South Blvd", "Charlotte, NC 28217"]}, "phone": "+17045546601", "display_phone": "(704) 554-6601", "distance": 7097.504865158426}, {"id": "jeJbLKuVSbPuAwvgOoP5hA", "alias": "us-fried-chicken-charlotte-2", "name": "US Fried Chicken", "image_url": "https://s3-media4.fl.yelpcdn.com/bphoto/KkRLnobFBoMBez-tr00ArA/o.jpg", "is_closed": false, "url": "https://www.yelp.com/biz/us-fried-chicken-charlotte-2?adjust_creative=3j_hgEMT5cXMV0-4GMvDgQ&utm_campaign=yelp_api_v3&utm_medium=api_v3_business_search&utm_source=3j_hgEMT5cXMV0-4GMvDgQ", "review_count": 18, "categories": [{"alias": "halal", "title": "Halal"}, {"alias": "newamerican", "title": "American (New)"}, {"alias": "italian", "title": "Italian"}], "rating": 3.5, "coordinates": {"latitude": 35.245889, "longitude": -80.898495}, "transactions": ["delivery"], "price": "$", "location": {"address1": "4419 Tuckaseegee Rd", "address2": null, "address3": "", "city": "Charlotte", "zip_code": "28208", "country": "US", "state": "NC", "display_address": ["4419 Tuckaseegee Rd", "Charlotte, NC 28208"]}, "phone": "+17049008406", "display_phone": "(704) 900-8406", "distance": 7798.337076705378}, {"id": "uTBm1BXwhdUcLJy2-IIQTA", "alias": "angelas-charlotte", "name": "Angela's", "image_url": "https://s3-media1.fl.yelpcdn.com/bphoto/RWyYsvSDUCEb-VHT8njg_w/o.jpg", "is_closed": false, "url": "https://www.yelp.com/biz/angelas-charlotte?adjust_creative=3j_hgEMT5cXMV0-4GMvDgQ&utm_campaign=yelp_api_v3&utm_medium=api_v3_business_search&utm_source=3j_hgEMT5cXMV0-4GMvDgQ", "review_count": 120, "categories": [{"alias": "italian", "title": "Italian"}, {"alias": "pizza", "title": "Pizza"}], "rating": 3.5, "coordinates": {"latitude": 35.1719848281275, "longitude": -80.7084629551797}, "transactions": ["delivery", "pickup"], "price": "$$", "location": {"address1": "9705 Mintworth Ave", "address2": "", "address3": "", "city": "Charlotte", "zip_code": "28227", "country": "US", "state": "NC", "display_address": ["9705 Mintworth Ave", "Charlotte, NC 28227"]}, "phone": "+17045732737", "display_phone": "(704) 573-2737", "distance": 11539.239746110678}, {"id": "1-YHPukObpZxfprBdnEeNA", "alias": "sheslea-s-pizza-and-pasta-charlotte", "name": "Sheslea\u2019s Pizza & Pasta", "image_url": "https://s3-media1.fl.yelpcdn.com/bphoto/oOU4JMbwLhqdsjSYdTGCiA/o.jpg", "is_closed": false, "url": "https://www.yelp.com/biz/sheslea-s-pizza-and-pasta-charlotte?adjust_creative=3j_hgEMT5cXMV0-4GMvDgQ&utm_campaign=yelp_api_v3&utm_medium=api_v3_business_search&utm_source=3j_hgEMT5cXMV0-4GMvDgQ", "review_count": 16, "categories": [{"alias": "italian", "title": "Italian"}, {"alias": "pizza", "title": "Pizza"}], "rating": 4.0, "coordinates": {"latitude": 35.20368783, "longitude": -80.735009}, "transactions": ["delivery", "pickup"], "location": {"address1": "6453 Albemarle Rd", "address2": null, "address3": "", "city": "Charlotte", "zip_code": "28212", "country": "US", "state": "NC", "display_address": ["6453 Albemarle Rd", "Charlotte, NC 28212"]}, "phone": "+19803351200", "display_phone": "(980) 335-1200", "distance": 8527.63169725207}, {"id": "w_bgAqgWj41aD3vph3wm8w", "alias": "beauregards-charlotte", "name": "Beauregards", "image_url": "https://s3-media2.fl.yelpcdn.com/bphoto/ikUGUkO85O5Ql93XSeIHTQ/o.jpg", "is_closed": false, "url": "https://www.yelp.com/biz/beauregards-charlotte?adjust_creative=3j_hgEMT5cXMV0-4GMvDgQ&utm_campaign=yelp_api_v3&utm_medium=api_v3_business_search&utm_source=3j_hgEMT5cXMV0-4GMvDgQ", "review_count": 47, "categories": [{"alias": "newamerican", "title": "American (New)"}, {"alias": "italian", "title": "Italian"}], "rating": 2.5, "coordinates": {"latitude": 35.2432, "longitude": -80.88907}, "transactions": ["delivery"], "price": "$$", "location": {"address1": "3030 Freedom Dr", "address2": "", "address3": "", "city": "Charlotte", "zip_code": "28208", "country": "US", "state": "NC", "display_address": ["3030 Freedom Dr", "Charlotte, NC 28208"]}, "phone": "+17043995155", "display_phone": "(704) 399-5155", "distance": 6945.715506617804}, {"id": "ui8KERxCwlx8B5vWvpXxqg", "alias": "hawthornes-ny-pizza-and-bar-charlotte-7", "name": "Hawthorne's NY Pizza & Bar", "image_url": "https://s3-media1.fl.yelpcdn.com/bphoto/x710iBVpB37WWCHaX6aW4A/o.jpg", "is_closed": false, "url": "https://www.yelp.com/biz/hawthornes-ny-pizza-and-bar-charlotte-7?adjust_creative=3j_hgEMT5cXMV0-4GMvDgQ&utm_campaign=yelp_api_v3&utm_medium=api_v3_business_search&utm_source=3j_hgEMT5cXMV0-4GMvDgQ", "review_count": 123, "categories": [{"alias": "pizza", "title": "Pizza"}, {"alias": "italian", "title": "Italian"}, {"alias": "beerbar", "title": "Beer Bar"}], "rating": 3.5, "coordinates": {"latitude": 35.1171477, "longitude": -80.82437990000001}, "transactions": ["delivery", "pickup"], "price": "$$", "location": {"address1": "4100 Carmel Rd", "address2": "Ste A", "address3": "", "city": "Charlotte", "zip_code": "28226", "country": "US", "state": "NC", "display_address": ["4100 Carmel Rd", "Ste A", "Charlotte, NC 28226"]}, "phone": "+17045440299", "display_phone": "(704) 544-0299", "distance": 9753.821159676323}, {"id": "IyQM7RlbSp9ItuZIXpe70Q", "alias": "sbarro-charlotte-8", "name": "Sbarro", "image_url": "https://s3-media1.fl.yelpcdn.com/bphoto/V_4-LZxumZp4jMOs1w1R1Q/o.jpg", "is_closed": false, "url": "https://www.yelp.com/biz/sbarro-charlotte-8?adjust_creative=3j_hgEMT5cXMV0-4GMvDgQ&utm_campaign=yelp_api_v3&utm_medium=api_v3_business_search&utm_source=3j_hgEMT5cXMV0-4GMvDgQ", "review_count": 3, "categories": [{"alias": "italian", "title": "Italian"}, {"alias": "pizza", "title": "Pizza"}, {"alias": "salad", "title": "Salad"}], "rating": 1.0, "coordinates": {"latitude": 35.216986286942124, "longitude": -80.83128768220888}, "transactions": ["delivery"], "location": {"address1": "1206 Elizabeth Av", "address2": null, "address3": null, "city": "Charlotte", "zip_code": "28204", "country": "US", "state": "NC", "display_address": ["1206 Elizabeth Av", "Charlotte, NC 28204"]}, "phone": "+17045953338", "display_phone": "(704) 595-3338", "distance": 1373.276273650878}, {"id": "5mb-6Guz9xqNXMigh8noMQ", "alias": "brooklyn-pizza-parlor-charlotte", "name": "Brooklyn Pizza Parlor", "image_url": "https://s3-media3.fl.yelpcdn.com/bphoto/TlN5FGOm4donC7S6LNXH5A/o.jpg", "is_closed": false, "url": "https://www.yelp.com/biz/brooklyn-pizza-parlor-charlotte?adjust_creative=3j_hgEMT5cXMV0-4GMvDgQ&utm_campaign=yelp_api_v3&utm_medium=api_v3_business_search&utm_source=3j_hgEMT5cXMV0-4GMvDgQ", "review_count": 139, "categories": [{"alias": "pizza", "title": "Pizza"}, {"alias": "italian", "title": "Italian"}, {"alias": "salad", "title": "Salad"}], "rating": 3.5, "coordinates": {"latitude": 35.106407, "longitude": -80.8077349}, "transactions": ["delivery", "pickup"], "price": "$", "location": {"address1": "7725 Colony Rd", "address2": "Ste E1", "address3": "", "city": "Charlotte", "zip_code": "28226", "country": "US", "state": "NC", "display_address": ["7725 Colony Rd", "Ste E1", "Charlotte, NC 28226"]}, "phone": "+17045425439", "display_phone": "(704) 542-5439", "distance": 11107.782545540898}, {"id": "zcfmbmOEX83YL04f9_Y0BA", "alias": "juliana-pizza-charlotte-2", "name": "Juliana Pizza", "image_url": "https://s3-media4.fl.yelpcdn.com/bphoto/Zy1mYP2G58unzfo6O25LfQ/o.jpg", "is_closed": false, "url": "https://www.yelp.com/biz/juliana-pizza-charlotte-2?adjust_creative=3j_hgEMT5cXMV0-4GMvDgQ&utm_campaign=yelp_api_v3&utm_medium=api_v3_business_search&utm_source=3j_hgEMT5cXMV0-4GMvDgQ", "review_count": 63, "categories": [{"alias": "pizza", "title": "Pizza"}, {"alias": "italian", "title": "Italian"}], "rating": 3.5, "coordinates": {"latitude": 35.1378363, "longitude": -80.7386428}, "transactions": ["delivery"], "price": "$$", "location": {"address1": "9858 Monroe Rd", "address2": "", "address3": "", "city": "Charlotte", "zip_code": "28270", "country": "US", "state": "NC", "display_address": ["9858 Monroe Rd", "Charlotte, NC 28270"]}, "phone": "+17048477000", "display_phone": "(704) 847-7000", "distance": 11060.631286364182}, {"id": "5gl2GLgimBz1-Q-uXji_Rw", "alias": "milanos-pizza-and-pasta-charlotte", "name": "Milano's Pizza & Pasta", "image_url": "https://s3-media3.fl.yelpcdn.com/bphoto/OSvFgddBqYixw3d9NMBuTw/o.jpg", "is_closed": false, "url": "https://www.yelp.com/biz/milanos-pizza-and-pasta-charlotte?adjust_creative=3j_hgEMT5cXMV0-4GMvDgQ&utm_campaign=yelp_api_v3&utm_medium=api_v3_business_search&utm_source=3j_hgEMT5cXMV0-4GMvDgQ", "review_count": 132, "categories": [{"alias": "italian", "title": "Italian"}, {"alias": "chicken_wings", "title": "Chicken Wings"}, {"alias": "salad", "title": "Salad"}], "rating": 3.5, "coordinates": {"latitude": 35.12835, "longitude": -80.94309}, "transactions": ["delivery", "pickup"], "price": "$$", "location": {"address1": "9640 S Tryon St", "address2": "", "address3": "", "city": "Charlotte", "zip_code": "28273", "country": "US", "state": "NC", "display_address": ["9640 S Tryon St", "Charlotte, NC 28273"]}, "phone": "+17045885858", "display_phone": "(704) 588-5858", "distance": 13413.296363424412}, {"id": "-8Oaw94x2pYJCVP8ZtuTTw", "alias": "carrabbas-italian-grill-matthews-6", "name": "Carrabba's Italian Grill", "image_url": "https://s3-media3.fl.yelpcdn.com/bphoto/7KasRiW_4M9wUS5yJNTOCw/o.jpg", "is_closed": false, "url": "https://www.yelp.com/biz/carrabbas-italian-grill-matthews-6?adjust_creative=3j_hgEMT5cXMV0-4GMvDgQ&utm_campaign=yelp_api_v3&utm_medium=api_v3_business_search&utm_source=3j_hgEMT5cXMV0-4GMvDgQ", "review_count": 211, "categories": [{"alias": "italian", "title": "Italian"}, {"alias": "seafood", "title": "Seafood"}, {"alias": "wine_bars", "title": "Wine Bars"}], "rating": 3.0, "coordinates": {"latitude": 35.127594118220664, "longitude": -80.70794525600978}, "transactions": ["delivery", "pickup"], "price": "$$", "location": {"address1": "10408 E Independence Blvd", "address2": "", "address3": "", "city": "Matthews", "zip_code": "28105", "country": "US", "state": "NC", "display_address": ["10408 E Independence Blvd", "Matthews, NC 28105"]}, "phone": "+17048440464", "display_phone": "(704) 844-0464", "distance": 13950.778356800309}, {"id": "8QRf5qGDEuDulIIRzZqL2w", "alias": "bellacinos-pizza-and-grinders-charlotte-2", "name": "Bellacino's Pizza and Grinders", "image_url": "", "is_closed": false, "url": "https://www.yelp.com/biz/bellacinos-pizza-and-grinders-charlotte-2?adjust_creative=3j_hgEMT5cXMV0-4GMvDgQ&utm_campaign=yelp_api_v3&utm_medium=api_v3_business_search&utm_source=3j_hgEMT5cXMV0-4GMvDgQ", "review_count": 0, "categories": [{"alias": "italian", "title": "Italian"}, {"alias": "pizza", "title": "Pizza"}], "rating": 0.0, "coordinates": {"latitude": 35.2251625061035, "longitude": -80.8392639160156}, "transactions": ["delivery"], "location": {"address1": "333 E Trade St", "address2": null, "address3": null, "city": "Charlotte", "zip_code": "28202", "country": "US", "state": "NC", "display_address": ["333 E Trade St", "Charlotte, NC 28202"]}, "phone": "+17043727122", "display_phone": "(704) 372-7122", "distance": 2457.2543494860365}, {"id": "oYDE-FP4oAjaM6KQk3FM2Q", "alias": "my-sausage-buddy-charlotte", "name": "My Sausage Buddy", "image_url": "https://s3-media2.fl.yelpcdn.com/bphoto/GITEOdm3tmtZ-4pQ546tNw/o.jpg", "is_closed": false, "url": "https://www.yelp.com/biz/my-sausage-buddy-charlotte?adjust_creative=3j_hgEMT5cXMV0-4GMvDgQ&utm_campaign=yelp_api_v3&utm_medium=api_v3_business_search&utm_source=3j_hgEMT5cXMV0-4GMvDgQ", "review_count": 12, "categories": [{"alias": "foodtrucks", "title": "Food Trucks"}, {"alias": "italian", "title": "Italian"}, {"alias": "hotdog", "title": "Hot Dogs"}], "rating": 4.0, "coordinates": {"latitude": 35.12061, "longitude": -80.71788}, "transactions": [], "location": {"address1": null, "address2": null, "address3": "", "city": "Charlotte", "zip_code": "28105", "country": "US", "state": "NC", "display_address": ["Charlotte, NC 28105"]}, "phone": "+15165120574", "display_phone": "(516) 512-0574", "distance": 15033.097307431975}, {"id": "281eGXO-yxDMBIggVA7eDQ", "alias": "zinos-charlotte", "name": "Zino's", "image_url": "", "is_closed": false, "url": "https://www.yelp.com/biz/zinos-charlotte?adjust_creative=3j_hgEMT5cXMV0-4GMvDgQ&utm_campaign=yelp_api_v3&utm_medium=api_v3_business_search&utm_source=3j_hgEMT5cXMV0-4GMvDgQ", "review_count": 0, "categories": [{"alias": "italian", "title": "Italian"}, {"alias": "pizza", "title": "Pizza"}], "rating": 0.0, "coordinates": {"latitude": 35.1622956991196, "longitude": -80.73934212327}, "transactions": [], "location": {"address1": "7308 E Independence Blvd", "address2": "", "address3": "", "city": "Charlotte", "zip_code": "28227", "country": "US", "state": "NC", "display_address": ["7308 E Independence Blvd", "Charlotte, NC 28227"]}, "phone": "+17045681999", "display_phone": "(704) 568-1999", "distance": 4589.109132642581}, {"id": "Pd-CDiYN7g1OJ-VJfl_NYg", "alias": "sapori-d-ithalia-charlotte", "name": "Sapori d'Ithalia", "image_url": "https://s3-media1.fl.yelpcdn.com/bphoto/rnx8Nvg1-51G5vBsR-bvCg/o.jpg", "is_closed": false, "url": "https://www.yelp.com/biz/sapori-d-ithalia-charlotte?adjust_creative=3j_hgEMT5cXMV0-4GMvDgQ&utm_campaign=yelp_api_v3&utm_medium=api_v3_business_search&utm_source=3j_hgEMT5cXMV0-4GMvDgQ", "review_count": 0, "categories": [{"alias": "personalchefs", "title": "Personal Chefs"}, {"alias": "italian", "title": "Italian"}], "rating": 0.0, "coordinates": {"latitude": 35.17145414589084, "longitude": -80.90839236890449}, "transactions": [], "location": {"address1": "", "address2": null, "address3": "", "city": "Charlotte", "zip_code": "28217", "country": "US", "state": "NC", "display_address": ["Charlotte, NC 28217"]}, "phone": "+19803370581", "display_phone": "(980) 337-0581", "distance": 8116.725353618034}]